{
  "type": "FeatureCollection",
  "features": [
    
    
    {
      "type": "Feature",
      "geometry": {
        "type": "Point",
        "coordinates": [37.5080, 55.7439]
      },
      "properties": {
        "name": "Arena Play",
        "type": "main",
        "category": "Развлекательный центр, картинг",
        "address": "г. Москва, Багратионовский пр-д, д. 5 (19 уровень парковки)",
        "phone": "+7 (495) 120 1718",
        "topic": "http://mazda6.ru/m/viewtopic.php?f=216&t=109326"
      }
    },

    {
      "type": "Feature",
      "geometry": {
        "type": "Point",
        "coordinates": [37.5833, 55.7035]
      },
      "properties": {
        "name": "Carglass®",
        "type": "main",
        "category": "Ремонт и замена автостекол (Все марки)",
        "address": "г. Москва, ул. Вавилова, д. 13а",
        "phone": "8 (800) 555 4843",
        "topic": "http://mazda6.ru/m/viewtopic.php?f=216&t=108835"
      }
    },

    {
      "type": "Feature",
      "geometry": {
        "type": "Point",
        "coordinates": [37.8062, 55.6993]
      },
      "properties": {
        "name": "Carglass®",
        "type": "main",
        "category": "Ремонт и замена автостекол (Все марки)",
        "address": "г. Москва, ул. Ташкентская, д. 28, стр. 1",
        "phone": "8 (800) 555 4843",
        "topic": "http://mazda6.ru/m/viewtopic.php?f=216&t=108835"
      }
    },

    {
      "type": "Feature",
      "geometry": {
        "type": "Point",
        "coordinates": [37.5465, 55.8589]
      },
      "properties": {
        "name": "Carglass®",
        "type": "main",
        "category": "Ремонт и замена автостекол (Все марки)",
        "address": "г. Москва, Ильменский проезд, д. 10, стр. 2а",
        "phone": "8 (800) 555 4843",
        "topic": "http://mazda6.ru/m/viewtopic.php?f=216&t=108835"
      }
    },

    {
      "type": "Feature",
      "geometry": {
        "type": "Point",
        "coordinates": [37.4005, 55.8352]
      },
      "properties": {
        "name": "Carglass®",
        "type": "main",
        "category": "Ремонт и замена автостекол (Все марки)",
        "address": "г. Москва, ул. Василия Петушкова, д. 3, корп. 3, стр. 1",
        "phone": "8 (800) 555 4843",
        "topic": "http://mazda6.ru/m/viewtopic.php?f=216&t=108835"
      }
    },

    {
      "type": "Feature",
      "geometry": {
        "type": "Point",
        "coordinates": [37.7112, 55.7795]
      },
      "properties": {
        "name": "Carglass®",
        "type": "main",
        "category": "Ремонт и замена автостекол (Все марки)",
        "address": "г. Москва, ул. Золотая, д. 11",
        "phone": "8 (800) 555-4843",
        "topic": "http://mazda6.ru/m/viewtopic.php?f=216&t=108835"
      }
    },
    
    {
      "type": "Feature",
      "geometry": {
        "type": "Point",
        "coordinates": [37.6990, 55.8707]
      },
      "properties": {
        "name": "Carglass®",
        "type": "main",
        "category": "Ремонт и замена автостекол (Все марки)",
        "address": "г. Москва, ул. Федоскинская, д. 12б, корп. 1",
        "phone": "8 (800) 555-4843",
        "topic": "http://mazda6.ru/m/viewtopic.php?f=216&t=108835"
      }
    },
    
    {
      "type": "Feature",
      "geometry": {
        "type": "Point",
        "coordinates": [37.766930, 55.563711]
      },
      "properties": {
        "name": "Carglass®",
        "type": "main",
        "category": "Ремонт и замена автостекол (Все марки)",
        "address": "МО, Ленинский р-н, Логистический центр Апаринки, вл. 9, бокс 11",
        "phone": "8 (800) 555-4843",
        "topic": "http://mazda6.ru/m/viewtopic.php?f=216&t=108835"
      }
    },
    
    {
      "type": "Feature",
      "geometry": {
        "type": "Point",
        "coordinates": [37.764039, 55.566026]
      },
      "properties": {
        "name": "Carglass®",
        "type": "main",
        "category": "Ремонт и замена автостекол (Грузовой транспорт)",
        "address": "МО, Ленинский р-н, Логистический центр Апаринки, вл. 9, бокс 6",
        "phone": "8 (800) 555-4843",
        "topic": "http://mazda6.ru/m/viewtopic.php?f=216&t=108835"
      }
    },
    
    {
      "type": "Feature",
      "geometry": {
        "type": "Point",
        "coordinates": [37.434562, 55.637177]
      },
      "properties": {
        "name": "Carglass®",
        "type": "main",
        "category": "Ремонт и замена автостекол (Все марки)",
        "address": "г. Москва, БП Румянцево, блок Е, 1 этаж, пав. 17",
        "phone": "8 (800) 555-4843",
        "topic": "http://mazda6.ru/m/viewtopic.php?f=216&t=108835"
      }
    },
    
    {
      "type": "Feature",
      "geometry": {
        "type": "Point",
        "coordinates": [37.4162, 55.6805]
      },
      "properties": {
        "name": "Carglass®",
        "type": "main",
        "category": "Ремонт и замена автостекол (Все марки)",
        "address": "МО, Одинцовский р-н, пос. Заречье, ул. Торговая, д. 5/1 (50 км. МКАД)",
        "phone": "8 (800) 555-4843",
        "topic": "http://mazda6.ru/m/viewtopic.php?f=216&t=108835"
      }
    },
    
    {
      "type": "Feature",
      "geometry": {
        "type": "Point",
        "coordinates": [30.4490, 59.8935]
      },
      "properties": {
        "name": "Carglass®",
        "type": "main",
        "category": "Ремонт и замена автостекол (Все марки)",
        "address": "г. Санкт-Петербург, Октябрьская набережная, д. 44",
        "phone": "8 (800) 555-4843",
        "topic": "http://mazda6.ru/m/viewtopic.php?f=216&t=108835"
      }
    },
    
    {
      "type": "Feature",
      "geometry": {
        "type": "Point",
        "coordinates": [30.2344, 59.9955]
      },
      "properties": {
        "name": "Carglass®",
        "type": "main",
        "category": "Ремонт и замена автостекол (Все марки)",
        "address": "г. Санкт-Петербург, ул. Планерная, д. 15б",
        "phone": "8 (800) 555-4843",
        "topic": "http://mazda6.ru/m/viewtopic.php?f=216&t=108835"
      }
    },
    
    {
      "type": "Feature",
      "geometry": {
        "type": "Point",
        "coordinates": [30.3130, 59.8320]
      },
      "properties": {
        "name": "Carglass®",
        "type": "main",
        "category": "Ремонт и замена автостекол (Все марки)",
        "address": "г. Санкт-Петербург, 5-й Предпортовый пр-д, д. 14, корп. 1",
        "phone": "8 (800) 555-4843",
        "topic": "http://mazda6.ru/m/viewtopic.php?f=216&t=108835"
      }
    },
    
    {
      "type": "Feature",
      "geometry": {
        "type": "Point",
        "coordinates": [82.9343, 55.0778]
      },
      "properties": {
        "name": "Carglass®",
        "type": "main",
        "category": "Ремонт и замена автостекол (Все марки)",
        "address": "г. Новосибирск, ул. Даргомыжского, д. 8а, корп. 5",
        "phone": "8 (800) 555-4843",
        "topic": "http://mazda6.ru/m/viewtopic.php?f=216&t=108835"
      }
    },
    
    {
      "type": "Feature",
      "geometry": {
        "type": "Point",
        "coordinates": [60.5980, 56.8567]
      },
      "properties": {
        "name": "Carglass®",
        "type": "main",
        "category": "Ремонт и замена автостекол (Все марки)",
        "address": "г. Екатеринбург, ул. Героев России, д. 2",
        "phone": "8 (800) 555-4843",
        "topic": "http://mazda6.ru/m/viewtopic.php?f=216&t=108835"
      }
    },
    
    {
      "type": "Feature",
      "geometry": {
        "type": "Point",
        "coordinates": [37.6238, 54.1836]
      },
      "properties": {
        "name": "Carglass®",
        "type": "main",
        "category": "Ремонт и замена автостекол (Все марки)",
        "address": "г. Тула, ул. Оборонная, д. 40",
        "phone": "8 (800) 555-4843",
        "topic": "http://mazda6.ru/m/viewtopic.php?f=216&t=108835"
      }
    },
    
    {
      "type": "Feature",
      "geometry": {
        "type": "Point",
        "coordinates": [37.8838, 55.7487]
      },
      "properties": {
        "name": "Шиномонтаж (стационарный)",
        "type": "main",
        "category": "Ремонт автомобиля, шиномонтаж, хранение (Все марки)",
        "address": "г. Реутов, Никольско-Архангельский пр-д",
        "phone": "Телефоны: +7 (495) 512-0112, (925) 232-0300",
        "topic": "http://mazda6.ru/m/viewtopic.php?f=215&t=107668"
      }
    },
    
    {
      "type": "Feature",
      "geometry": {
        "type": "Point",
        "coordinates": [37.846527, 55.734045]
      },
      "properties": {
        "name": "Шиномонтаж (мобильный)",
        "type": "main",
        "category": "Ремонт автомобиля, шиномонтаж, хранение (Все марки)",
        "address": "г. Реутов, ул. Суздальская",
        "phone": "Телефоны: +7 (495) 512-0112, (925) 232-0300",
        "topic": "http://mazda6.ru/m/viewtopic.php?f=215&t=107668"
      }
    },
    
    {
      "type": "Feature",
      "geometry": {
        "type": "Point",
        "coordinates": [37.900187, 55.720119]
      },
      "properties": {
        "name": "Шиномонтаж (мобильный)",
        "type": "main",
        "category": "Ремонт автомобиля, шиномонтаж, хранение (Все марки)",
        "address": "г. Люберцы, ул. Лухмановская, д. 9",
        "phone": "Телефоны: +7 (495) 512-0112, (925) 232-0300",
        "topic": "http://mazda6.ru/m/viewtopic.php?f=215&t=107668"
      }
    },
    
    {
      "type": "Feature",
      "geometry": {
        "type": "Point",
        "coordinates": [37.6157, 55.6994]
      },
      "properties": {
        "name": "СЦ «R-P-M»",
        "type": "main",
        "category": "Ремонт и обслуживание автомобиля (Mazda)",
        "address": "г. Москва, Загородное шоссе, д. 1, корп. 2, стр. 2",
        "phone": "+7 (495) 785-8101",
        "topic": "http://mazda6.ru/m/viewtopic.php?f=216&t=57395"
      }
    },
    
    {
      "type": "Feature",
      "geometry": {
        "type": "Point",
        "coordinates": [37.8062, 55.6993]
      },
      "properties": {
        "name": "СЦ «Пилот»",
        "type": "main",
        "category": "Ремонт и обслуживание автомобиля (Mazda)",
        "address": "г. Москва, ул. Ташкентская, д. 28 стр. 1",
        "phone": "+7 (495) 785-0665",
        "topic": "http://mazda6.ru/m/viewtopic.php?f=216&t=83712"
      }
    },
    
    {
      "type": "Feature",
      "geometry": {
        "type": "Point",
        "coordinates": [37.5116, 55.7688]
      },
      "properties": {
        "name": "ТЦ «SwapLaboratories» (24 часа)",
        "type": "main",
        "category": "Ремонт автомобиля, шиномонтаж, хранение (Все марки)",
        "address": "г. Москва, 1-й Силикатный пр-д, д. 10, стр. 2",
        "phone": "+7 (495) 969-6885",
        "topic": "http://mazda6.ru/m/viewtopic.php?f=154&t=107556"
      }
    },
    
    {
      "type": "Feature",
      "geometry": {
        "type": "Point",
        "coordinates": [37.3864, 55.7111]
      },
      "properties": {
        "name": "АВТОДАТА",
        "type": "main",
        "category": "Локальный кузовной ремонт (Mazda)",
        "address": "г. Москва, Можайское ш., д. 165",
        "phone": "Телефоны: +7 (495) 772-1171, (926) 215-5052, (926) 612-1259",
        "topic": "http://mazda6.ru/m/viewtopic.php?f=216&t=46562"
      }
    },
    
    {
      "type": "Feature",
      "geometry": {
        "type": "Point",
        "coordinates": [37.7117, 55.7792]
      },
      "properties": {
        "name": "СЦ «У Шустова»",
        "type": "main",
        "category": "Ремонт и обслуживание автомобиля (Mazda)",
        "address": "г. Москва, ул. Золотая, д. 11, стр. 3",
        "phone": "Телефоны: +7 (495) 162-2176, 995-7435",
        "topic": "http://mazda6.ru/m/viewtopic.php?f=216&t=34581"
      }
    },
    
    {
      "type": "Feature",
      "geometry": {
        "type": "Point",
        "coordinates": [37.7085, 55.7181]
      },
      "properties": {
        "name": "ДИАНА МАРИН",
        "type": "main",
        "category": "Пошив и перетяжка салона (Mazda)",
        "address": "г. Москва, Остаповский проезд, д. 12",
        "phone": "+7 (966) 141-5011",
        "topic": "http://mazda6.ru/m/viewtopic.php?f=216&t=98931"
      }
    },
    
    {
      "type": "Feature",
      "geometry": {
        "type": "Point",
        "coordinates": [37.6846, 55.7170]
      },
      "properties": {
        "name": "СЦ «ОПТИМА-СЕРВИС»",
        "type": "main",
        "category": "Ремонт и обслуживание автомобиля (Mazda)",
        "address": "г. Москва, 2-я ул. Машиностроения, д. 21",
        "phone": "+7 (495) 973-2372",
        "topic": "http://mazda6.ru/m/viewtopic.php?f=216&t=72897"
      }
    },
    
    {
      "type": "Feature",
      "geometry": {
        "type": "Point",
        "coordinates": [37.5721, 55.7005]
      },
      "properties": {
        "name": "X-RACE Performance",
        "type": "main",
        "category": "Спортивные тормозные системы (все марки)",
        "address": "г. Москва, ул. Бардина, д. 4",
        "phone": "+7 (495) 991-1242",
        "topic": "http://mazda6.ru/m/viewtopic.php?f=170&t=106070"
      }
    },
    
    {
      "type": "Feature",
      "geometry": {
        "type": "Point",
        "coordinates": [37.8220, 55.8075]
      },
      "properties": {
        "name": "СЦ «АПиК»",
        "type": "main",
        "category": "Защита от угона, дополнительное оборудование (Mazda)",
        "address": "г. Москва, ул. 15-я Парковая, д. 46Б",
        "phone": "Телефоны: +7 (495) 744-6534, (906) 706-7994",
        "topic": "http://mazda6.ru/m/viewtopic.php?f=216&t=53775"
      }
    },
    
    {
      "type": "Feature",
      "geometry": {
        "type": "Point",
        "coordinates": [37.420015, 55.758266]
      },
      "properties": {
        "name": "Autosecurity",
        "type": "main",
        "category": "Защита ЛКП, винил, салонные работы (Mazda)",
        "address": "г. Москва, ул. Крылатские холмы, д. 14",
        "phone": "+7 (499) 653-8844",
        "topic": "http://mazda6.ru/m/viewtopic.php?f=170&t=70527"
      }
    },
    
    {
      "type": "Feature",
      "geometry": {
        "type": "Point",
        "coordinates": [37.782242, 55.609273]
      },
      "properties": {
        "name": "НАЯДА Индастриал",
        "type": "main",
        "category": "Порошковая покраска дисков (Все марки)",
        "address": "МО, Ленинский р-н, с. Беседы",
        "phone": "Телефоны: +7 (495) 781-3549, 781-3548, (499) 130-9059",
        "topic": "http://mazda6.ru/m/viewtopic.php?f=216&t=66476"
      }
    },
    
    {
      "type": "Feature",
      "geometry": {
        "type": "Point",
        "coordinates": [38.2702, 55.4107]
      },
      "properties": {
        "name": "ANTI-SHUM",
        "type": "main",
        "category": "Шумоизоляционные работы (Mazda)",
        "address": "МО, г. Бронницы, Гаражный пр-д, д. 5",
        "phone": "Телефоны: +7 (909) 917-9581, (917) 598-0430",
        "topic": "http://mazda6.ru/m/viewtopic.php?f=216&t=104012"
      }
    },
    
    {
      "type": "Feature",
      "geometry": {
        "type": "Point",
        "coordinates": [30.3369, 59.8820]
      },
      "properties": {
        "name": "ANTI-SHUM",
        "type": "main",
        "category": "Шумоизоляционные работы (Mazda)",
        "address": "г. Санкт-Петербург, ул. Рощинская, д. 32",
        "phone": "+7 (911) 931-1399",
        "topic": "http://mazda6.ru/m/viewtopic.php?f=216&t=104012"
      }
    },
    
    {
      "type": "Feature",
      "geometry": {
        "type": "Point",
        "coordinates": [49.2106, 55.8024]
      },
      "properties": {
        "name": "ANTI-SHUM",
        "type": "main",
        "category": "Шумоизоляционные работы (Mazda)",
        "address": "г. Казань, пр. Победы, д. 202, ТЦ «РАМИН-Авто»",
        "phone": "+7 (937) 285-5244",
        "topic": "http://mazda6.ru/m/viewtopic.php?f=216&t=104012"
      }
    },
    
    {
      "type": "Feature",
      "geometry": {
        "type": "Point",
        "coordinates": [61.3713, 55.2528]
      },
      "properties": {
        "name": "ANTI-SHUM",
        "type": "main",
        "category": "Шумоизоляционные работы (Mazda)",
        "address": "г. Челябинск, ул. Сурикова, д. 2, к. 2, СЦ «AutoSmile»",
        "phone": "+7 (982) 314-2888",
        "topic": "http://mazda6.ru/m/viewtopic.php?f=216&t=104012"
      }
    },
    
    {
      "type": "Feature",
      "geometry": {
        "type": "Point",
        "coordinates": [30.3369, 59.8820]
      },
      "properties": {
        "name": "СЦ «СТО-Мазда»",
        "type": "main",
        "category": "Ремонт и обслуживание автомобиля (Mazda)",
        "address": "г. Санкт-Петербург, ул. Рощинская, д. 32",
        "phone": "+7 (812) 309-8727",
        "topic": "http://mazda6.ru/m/viewtopic.php?f=92&t=95465"
      }
    },
    
    {
      "type": "Feature",
      "geometry": {
        "type": "Point",
        "coordinates": [60.5691, 56.8407]
      },
      "properties": {
        "name": "NeTuning.ru",
        "type": "main",
        "category": "Светодиодные лампы для автомобиля (Все марки)",
        "address": "г. Екатеринбург, ул. Долорес Ибаррури, д. 2Е",
        "phone": "8 (800) 555-0423",
        "topic": "http://mazda6.ru/m/viewtopic.php?f=170&t=56570"
      }
    },
    
    
    {
      "type": "Feature",
      "geometry": {
        "type": "Point",
        "coordinates": [37.6924, 55.6805]
      },
      "properties": {
        "name": "QWILL: Российские часы",
        "type": "partner",
        "category": "Ювелирные часы из золота и серебра",
        "address": "г. Москва, ул. Речников, д. 17, стр. 2",
        "phone": "+7 (495) 988-7338",
        "topic": "http://mazda6.ru/m/viewtopic.php?f=216&t=107426"
      }
    },
    
    {
      "type": "Feature",
      "geometry": {
        "type": "Point",
        "coordinates": [37.41583, 55.68134]
      },
      "properties": {
        "name": "СЦ «Автоимидж»",
        "type": "partner",
        "category": "Ремонт и обслуживание автомобиля (Mazda)",
        "address": "г. Москва, МКАД, 50-й километр, вл. 1, ТК «Ангар-Авто»",
        "phone": "Телефоны: +7 (495) 506-2626, 506-2662",
        "topic": "http://mazda6.ru/m/viewtopic.php?f=216&t=35848"
      }
    },
    
    {
      "type": "Feature",
      "geometry": {
        "type": "Point",
        "coordinates": [37.6108, 55.6849]
      },
      "properties": {
        "name": "СЦ «MAZDA-STO»",
        "type": "partner",
        "category": "Ремонт и обслуживание автомобиля (Mazda)",
        "address": "г. Москва, Нагорный проезд, 12Г",
        "phone": "+7 (499) 372-1820",
        "topic": "http://mazda6.ru/m/viewtopic.php?f=216&t=22936"
      }
    },
    
    {
      "type": "Feature",
      "geometry": {
        "type": "Point",
        "coordinates": [37.4007, 55.8356]
      },
      "properties": {
        "name": "СЦ «MAZDA-STO»",
        "type": "partner",
        "category": "Ремонт и обслуживание автомобиля (Mazda)",
        "address": "г. Москва, ул. Василия Петушкова, д. 3, к. 3, стр. 1",
        "phone": "+7 (499) 372-1820",
        "topic": "http://mazda6.ru/m/viewtopic.php?f=216&t=22936"
      }
    },
    
    {
      "type": "Feature",
      "geometry": {
        "type": "Point",
        "coordinates": [37.7322, 55.6551]
      },
      "properties": {
        "name": "УЦ «Autostudio.ru»",
        "type": "partner",
        "category": "Защита от угона, дополнительное оборудование (Mazda)",
        "address": "г. Москва, ул. Перерва, д. 19",
        "phone": "Телефоны: +7 (495) 960-8007, (495) 722-6597",
        "topic": "http://mazda6.ru/m/viewtopic.php?f=216&t=75908"
      }
    },
    
    {
      "type": "Feature",
      "geometry": {
        "type": "Point",
        "coordinates": [37.5892, 55.8499]
      },
      "properties": {
        "name": "УЦ «Autostudio.ru»",
        "type": "partner",
        "category": "Защита от угона, дополнительное оборудование (Mazda)",
        "address": "г. Москва, Сигнальный проезд, д. 7б",
        "phone": "+7 (495) 722-0847",
        "topic": "http://mazda6.ru/m/viewtopic.php?f=216&t=75908"
      }
    },
    
    {
      "type": "Feature",
      "geometry": {
        "type": "Point",
        "coordinates": [37.6944, 55.7779]
      },
      "properties": {
        "name": "УЦ «Autostudio.ru»",
        "type": "partner",
        "category": "Защита от угона, дополнительное оборудование (Mazda)",
        "address": "г. Москва, ул. Фридриха Энгельса, д. 64, стр. 4",
        "phone": "+7 (495) 722-8307",
        "topic": "http://mazda6.ru/m/viewtopic.php?f=216&t=75908"
      }
    },
    
    {
      "type": "Feature",
      "geometry": {
        "type": "Point",
        "coordinates": [30.3748, 59.8860]
      },
      "properties": {
        "name": "УЦ «Autostudio.ru»",
        "type": "partner",
        "category": "Защита от угона, дополнительное оборудование (Mazda)",
        "address": "г. Санкт-Петербург, ул. Салова, д. 70",
        "phone": "+7 (812) 702-3890",
        "topic": "http://mazda6.ru/m/viewtopic.php?f=216&t=75908"
      }
    },
    
    {
      "type": "Feature",
      "geometry": {
        "type": "Point",
        "coordinates": [30.2451, 60.0076]
      },
      "properties": {
        "name": "УЦ «Autostudio.ru»",
        "type": "partner",
        "category": "Защита от угона, дополнительное оборудование (Mazda)",
        "address": "г. Санкт-Петербург, ул. Камышовая, д. 17, корп. 2",
        "phone": "+7 (812) 702-3892",
        "topic": "http://mazda6.ru/m/viewtopic.php?f=216&t=75908"
      }
    },
    
    {
      "type": "Feature",
      "geometry": {
        "type": "Point",
        "coordinates": [30.2137, 59.8355]
      },
      "properties": {
        "name": "УЦ «Autostudio.ru»",
        "type": "partner",
        "category": "Защита от угона, дополнительное оборудование (Mazda)",
        "address": "г. Санкт-Петербург, ул. Бурцева, д. 23",
        "phone": "+7 (812) 702-3880",
        "topic": "http://mazda6.ru/m/viewtopic.php?f=216&t=75908"
      }
    },
    
    {
      "type": "Feature",
      "geometry": {
        "type": "Point",
        "coordinates": [30.4366, 60.0050]
      },
      "properties": {
        "name": "УЦ «Autostudio.ru»",
        "type": "partner",
        "category": "Защита от угона, дополнительное оборудование (Mazda)",
        "address": "г. Санкт-Петербург, ул. Руставели, д. 25",
        "phone": "+7 (812) 702-3898",
        "topic": "http://mazda6.ru/m/viewtopic.php?f=216&t=75908"
      }
    },
    
    {
      "type": "Feature",
      "geometry": {
        "type": "Point",
        "coordinates": [37.7122, 55.7203]
      },
      "properties": {
        "name": "УЦ «АТС-Тюнинг»",
        "type": "partner",
        "category": "Ремонт и обслуживание автомобиля, тюнинг (Mazda)",
        "address": "г. Москва, Остаповский проезд, д. 9",
        "phone": "Телефоны: +7 (495) 926-8644, (966) 306-6306",
        "topic": "http://mazda6.ru/m/viewtopic.php?f=170&t=44226"
      }
    },
    
    {
      "type": "Feature",
      "geometry": {
        "type": "Point",
        "coordinates": [37.7134, 55.7503]
      },
      "properties": {
        "name": "СЦ «Пилот-АКПП»",
        "type": "partner",
        "category": "Ремонт и обслуживание АКПП (Mazda)",
        "address": "г. Москва, 2-й Кабельный проезд, д. 2, стр. 3",
        "phone": "+7 (495) 721-4345",
        "topic": "http://mazda6.ru/m/viewtopic.php?f=216&t=94109"
      }
    },
    
    
    {
      "type": "Feature",
      "geometry": {
        "type": "Point",
        "coordinates": [37.4139, 55.9049]
      },
      "properties": {
        "name": "ДЦ «РОЛЬФ-Химки»",
        "type": "premium",
        "category": "Официальный дилер (Mazda)",
        "address": "МО, Химкинский район, г. Химки, Ленинградское шоссе, вл. 21",
        "phone": "+7 (495) 266-5671",
        "topic": "http://mazda6.ru/m/viewtopic.php?f=219&t=66879"
      }
    },
    
    {
      "type": "Feature",
      "geometry": {
        "type": "Point",
        "coordinates": [37.7762, 55.7200]
      },
      "properties": {
        "name": "ДЦ «РОЛЬФ-Восток»",
        "type": "premium",
        "category": "Официальный дилер (Mazda)",
        "address": "г. Москва, Рязанский проспект, д. 24, к. 3",
        "phone": "+7 (495) 785-8000",
        "topic": "http://mazda6.ru/m/viewtopic.php?f=219&t=74649"
      }
    },
    
    {
      "type": "Feature",
      "geometry": {
        "type": "Point",
        "coordinates": [30.2445, 59.9860]
      },
      "properties": {
        "name": "ДЦ «РОЛЬФ-Лахта»",
        "type": "premium",
        "category": "Официальный дилер (Mazda)",
        "address": "г. Санкт-Петербург, ул. Савушкина, д. 103Б",
        "phone": "+7 (812) 335-6777",
        "topic": "http://mazda6.ru/m/viewtopic.php?f=224&t=74052"
      }
    },
    
    {
      "type": "Feature",
      "geometry": {
        "type": "Point",
        "coordinates": [37.6758, 55.6445]
      },
      "properties": {
        "name": "ДЦ «АвтоСпецЦентр»",
        "type": "premium",
        "category": "Официальный дилер (Mazda)",
        "address": "г. Москва, Каширское шоссе, д. 45",
        "phone": "+7 (495) 664-2166",
        "topic": "http://mazda6.ru/m/viewtopic.php?f=226&t=82714"
      }
    },
    
    {
      "type": "Feature",
      "geometry": {
        "type": "Point",
        "coordinates": [37.7874, 55.7506]
      },
      "properties": {
        "name": "RMC Insurance",
        "type": "elite",
        "category": "Клубный сервис страхования (Все марки)",
        "address": "г. Москва, Зеленый проспект, д. 20",
        "phone": "+7 (495) 518-9418 доб. 2",
        "topic": "http://mazda6.ru/m/viewtopic.php?f=216&t=62653"
      }
    }
    
  ]
}
